City_ID,City,Country,Date,Lat,Lng,Max Temp,Humidity,Cloudiness,Wind Speed
0,Puerto Ayora,EC,2022-07-27 01:38:54,-0.7393,-90.3518,69.55,93,100,3.0
1,Grindavik,IS,2022-07-27 01:39:37,63.8424,-22.4338,55.35,100,100,17.27
2,Nikolskoye,RU,2022-07-27 01:39:37,59.7035,30.7861,66.09,90,100,4.9
3,Katsuura,JP,2022-07-27 01:39:38,35.1333,140.3,84.22,81,62,15.12
4,Ribeira Grande,PT,2022-07-27 01:39:38,38.5167,-28.7,74.14,85,38,8.72
5,Barrow,US,2022-07-27 01:39:38,71.2906,-156.7887,35.62,93,100,14.97
6,Rikitea,PF,2022-07-27 01:39:39,-23.1203,-134.9692,74.73,74,78,8.55
7,Albany,US,2022-07-27 01:37:38,42.6001,-73.9662,65.88,76,0,4.18
8,Changde,CN,2022-07-27 01:39:39,29.0464,111.6783,90.84,61,99,3.31
9,Bluff,NZ,2022-07-27 01:39:40,-46.6,168.3333,47.8,91,100,20.31
10,Vaini,TO,2022-07-27 01:39:40,-21.2,-175.2,74.05,72,100,12.62
11,Mwinilunga,ZM,2022-07-27 01:39:40,-11.7358,24.4293,51.46,51,47,5.48
12,Mar Del Plata,AR,2022-07-27 01:39:41,-38.0023,-57.5575,54.09,98,100,5.75
13,Edendale,ZA,2022-07-27 01:39:41,-29.6528,30.3147,53.01,33,11,5.91
14,Portland,US,2022-07-27 01:35:31,45.5234,-122.6762,101.89,32,0,8.05
15,Punta Arenas,CL,2022-07-27 01:39:42,-53.15,-70.9167,30.31,86,0,13.8
16,Makakilo City,US,2022-07-27 01:39:42,21.3469,-158.0858,82.72,65,100,18.41
17,Bredasdorp,ZA,2022-07-27 01:39:42,-34.5322,20.0403,49.12,94,23,5.64
18,Kavieng,PG,2022-07-27 01:39:43,-2.5744,150.7967,85.41,63,50,12.62
19,East London,ZA,2022-07-27 01:39:43,-33.0153,27.9116,64.9,46,30,8.52
20,Kapaa,US,2022-07-27 01:39:44,22.0752,-159.319,85.98,71,75,10.36
21,Ushuaia,AR,2022-07-27 01:39:44,-54.8,-68.3,31.66,74,0,5.75
22,Gorontalo,ID,2022-07-27 01:38:35,0.5412,123.0595,81.91,85,92,3.71
23,Tura,IN,2022-07-27 01:39:44,25.5198,90.2201,78.62,80,35,3.42
24,Petropavlovsk-Kamchatskiy,RU,2022-07-27 01:39:45,53.0452,158.6483,66.79,64,75,6.71
25,Butaritari,KI,2022-07-27 01:39:45,3.0707,172.7902,82.08,75,6,18.75
26,Benjamin Constant,BR,2022-07-27 01:39:46,-4.3831,-70.0311,75.33,97,5,2.44
27,Atuona,PF,2022-07-27 01:39:46,-9.8,-139.0333,77.13,76,15,16.33
28,Severo-Kurilsk,RU,2022-07-27 01:39:46,50.6789,156.125,55.02,82,98,5.19
29,Mataura,NZ,2022-07-27 01:39:47,-46.1927,168.8643,47.48,96,100,5.41
30,Beringovskiy,RU,2022-07-27 01:39:47,63.05,179.3167,46.36,96,100,11.61
31,Dutlwe,BW,2022-07-27 01:39:48,-23.9833,23.9,55.36,45,8,9.91
32,Santa Rosa,PH,2022-07-27 01:39:48,14.3122,121.1114,88.09,73,87,4.45
33,Araouane,ML,2022-07-27 01:39:48,18.9048,-3.5265,95.72,11,98,9.42
34,Port Blair,IN,2022-07-27 01:39:49,11.6667,92.75,82.44,83,40,2.3
35,Upernavik,GL,2022-07-27 01:39:49,72.7868,-56.1549,37.92,88,96,8.48
36,Talnakh,RU,2022-07-27 01:39:50,69.4865,88.3972,63.21,55,70,5.12
37,Bilibino,RU,2022-07-27 01:39:50,68.0546,166.4372,50.16,45,32,13.6
38,Jiuquan,CN,2022-07-27 01:39:50,39.7432,98.5174,85.96,10,0,14.03
39,Golega,PT,2022-07-27 01:39:51,39.4047,-8.4863,65.86,89,0,4.0
40,Saint George,US,2022-07-27 01:39:51,37.1041,-113.5841,95.63,31,0,9.22
41,Muswellbrook,AU,2022-07-27 01:39:52,-32.2667,150.9,60.33,45,3,11.05
42,Klaksvik,FO,2022-07-27 01:39:52,62.2266,-6.589,50.92,86,99,7.63
43,Hithadhoo,MV,2022-07-27 01:39:52,-0.6,73.0833,75.76,93,100,13.35
44,Port Alfred,ZA,2022-07-27 01:39:53,-33.5906,26.891,62.19,63,44,8.01
45,Banja Koviljaca,BA,2022-07-27 01:39:53,44.5144,19.1583,63.72,96,100,2.53
46,Saint-Philippe,RE,2022-07-27 01:39:53,-21.3585,55.7679,65.79,85,58,11.79
47,Demirci,TR,2022-07-27 01:39:54,39.0461,28.6589,64.11,49,0,6.58
48,Shingu,JP,2022-07-27 01:39:54,33.7333,135.9833,83.77,77,100,5.17
49,Lavrentiya,RU,2022-07-27 01:39:55,65.5833,-171.0,43.32,76,78,13.42
50,Nome,US,2022-07-27 01:39:55,64.5011,-165.4064,48.27,71,100,14.97
51,Port Elizabeth,ZA,2022-07-27 01:37:56,-33.918,25.5701,61.09,82,0,20.71
52,Penzance,GB,2022-07-27 01:39:56,50.1186,-5.5371,52.48,69,100,7.76
53,Alghero,IT,2022-07-27 01:39:56,40.5589,8.3181,69.89,100,0,1.14
54,Lebu,CL,2022-07-27 01:39:56,-37.6167,-73.65,51.03,85,66,14.12
55,Papara,BR,2022-07-27 01:39:57,-3.9839,-38.7273,77.68,87,100,3.4
56,Tailai,CN,2022-07-27 01:39:57,46.3833,123.4,80.04,65,100,13.76
57,Ostrovnoy,RU,2022-07-27 01:39:57,68.0531,39.5131,61.32,74,94,19.01
58,Kavaratti,IN,2022-07-27 01:39:58,10.5669,72.642,81.37,76,100,16.58
59,Liverpool,GB,2022-07-27 01:39:58,53.4106,-2.9779,55.81,86,75,4.61
60,Vaitape,PF,2022-07-27 01:39:59,-16.5167,-151.75,78.62,72,25,8.88
61,Carnarvon,AU,2022-07-27 01:39:59,-24.8667,113.6333,68.07,34,100,5.37
62,Qaanaaq,GL,2022-07-27 01:39:59,77.484,-69.3632,39.54,71,40,0.81
63,Kudahuvadhoo,MV,2022-07-27 01:40:00,2.6708,72.8944,81.32,78,64,16.17
64,Alofi,NU,2022-07-27 01:40:00,-19.0595,-169.9187,76.89,61,75,13.8
65,Chokurdakh,RU,2022-07-27 01:40:00,70.6333,147.9167,59.83,34,19,10.09
66,Viedma,AR,2022-07-27 01:40:01,-40.8135,-62.9967,49.03,97,100,4.81
67,Bethel,US,2022-07-27 01:40:01,41.3712,-73.414,73.76,69,0,3.44
68,Nishihara,JP,2022-07-27 01:40:02,26.1842,127.7558,85.68,83,20,12.66
69,Jamestown,US,2022-07-27 01:38:03,42.097,-79.2353,67.64,77,0,5.75
70,Samarai,PG,2022-07-27 01:40:02,-10.6167,150.6667,79.36,83,44,10.78
71,Chuy,UY,2022-07-27 01:40:03,-33.6971,-53.4616,58.28,96,24,4.76
72,Hasaki,JP,2022-07-27 01:40:03,35.7333,140.8333,90.28,81,73,17.92
73,Souillac,MU,2022-07-27 01:40:04,-20.5167,57.5167,66.58,94,75,3.44
74,Nanakuli,US,2022-07-27 01:40:04,21.3906,-158.1547,84.15,65,100,9.22
75,Cape Town,ZA,2022-07-27 01:40:04,-33.9258,18.4232,53.11,94,20,3.44
76,Constitucion,CL,2022-07-27 01:40:05,-35.3333,-72.4167,50.95,92,97,5.19
77,Saint-Paul,RE,2022-07-27 01:40:05,-21.0096,55.2707,69.89,78,26,1.57
78,Avarua,CK,2022-07-27 01:40:06,-21.2078,-159.775,77.05,57,60,18.41
79,Acapulco,MX,2022-07-27 01:40:06,16.8634,-99.8901,84.02,74,75,3.44
80,Zhigansk,RU,2022-07-27 01:40:07,66.7697,123.3711,74.79,54,23,4.23
81,Leningradskiy,RU,2022-07-27 01:40:07,69.3833,178.4167,36.09,93,100,5.64
82,Faanui,PF,2022-07-27 01:40:07,-16.4833,-151.75,78.62,72,24,8.97
83,Castro,BR,2022-07-27 01:40:08,-24.7911,-50.0119,54.55,81,2,4.23
84,Hobart,AU,2022-07-27 01:40:08,-42.8794,147.3294,54.27,69,75,11.5
85,Portmore,JM,2022-07-27 01:40:09,17.9702,-76.8672,82.36,69,75,23.02
86,Avera,US,2022-07-27 01:40:09,33.194,-82.5271,83.71,65,99,5.1
87,Trelew,AR,2022-07-27 01:40:09,-43.249,-65.3051,44.96,95,100,6.26
88,Iqaluit,CA,2022-07-27 01:40:10,63.7506,-68.5145,47.93,81,20,8.01
89,Airai,TL,2022-07-27 01:40:10,-8.9266,125.4092,69.71,44,60,5.32
90,Asosa,ET,2022-07-27 01:40:10,10.0667,34.5333,60.15,92,100,2.55
91,Tecolutla,MX,2022-07-27 01:40:11,20.4833,-97.0167,81.81,79,99,8.03
92,Mbini,GQ,2022-07-27 01:40:11,1.574,9.6134,75.29,89,83,11.23
93,Saint-Louis,SN,2022-07-27 01:40:12,16.3333,-15.0,86.74,61,86,11.18
94,Kastamonu,TR,2022-07-27 01:40:12,41.5,33.6667,52.74,86,0,1.05
95,Atambua,ID,2022-07-27 01:40:12,-9.1061,124.8925,80.73,48,50,3.96
96,Dikson,RU,2022-07-27 01:40:13,73.5069,80.5464,43.34,98,100,23.15
97,Sao Filipe,CV,2022-07-27 01:40:13,14.8961,-24.4956,77.04,86,45,3.33
98,Yar-Sale,RU,2022-07-27 01:40:14,66.8333,70.8333,54.45,70,97,10.04
99,Victoria,HK,2022-07-27 01:37:04,22.2855,114.1577,92.97,70,11,5.99
100,Hay River,CA,2022-07-27 01:40:14,60.8156,-115.7999,67.98,49,20,14.97
101,Deputatskiy,RU,2022-07-27 01:40:15,69.3,139.9,59.34,50,61,11.88
102,Belmonte,BR,2022-07-27 01:40:15,-15.8631,-38.8828,70.59,78,3,8.19
103,Cherskiy,RU,2022-07-27 01:40:15,68.75,161.3,53.91,44,26,8.41
104,Busselton,AU,2022-07-27 01:40:16,-33.65,115.3333,55.35,73,100,8.37
105,Ponta Do Sol,PT,2022-07-27 01:40:16,32.6667,-17.1,77.63,59,1,6.15
106,Skjervoy,NO,2022-07-27 01:40:16,70.0311,20.9714,55.4,98,100,12.44
107,Olafsvik,IS,2022-07-27 01:40:17,64.8945,-23.7142,53.33,97,100,15.59
108,Brae,GB,2022-07-27 01:40:17,60.3964,-1.353,50.94,88,66,7.52
109,Geraldton,AU,2022-07-27 01:40:18,-28.7667,114.6,54.01,76,0,10.36
110,Winnemucca,US,2022-07-27 01:38:17,40.973,-117.7357,98.65,6,0,6.91
111,Sinnamary,GF,2022-07-27 01:40:18,5.3833,-52.95,78.73,82,20,4.79
112,Esperance,AU,2022-07-27 01:37:49,-33.8667,121.9,57.04,74,100,3.69
113,Thompson,CA,2022-07-27 01:40:19,55.7435,-97.8558,60.96,82,75,5.75
114,Mahebourg,MU,2022-07-27 01:40:19,-20.4081,57.7,67.24,94,75,3.44
115,Deep River,CA,2022-07-27 01:40:20,46.1001,-77.4995,65.95,69,10,4.38
116,Billings,US,2022-07-27 01:40:20,45.7833,-108.5007,83.28,41,20,9.22
117,Maracaibo,VE,2022-07-27 01:40:20,10.6317,-71.6406,79.61,76,100,10.51
118,Nador,MA,2022-07-27 01:40:21,35.174,-2.9287,88.05,27,0,8.05
119,Gravdal,NO,2022-07-27 01:40:21,68.1214,13.5031,52.38,87,100,22.68
120,North Bend,US,2022-07-27 01:38:00,43.4065,-124.2243,66.92,88,0,12.66
121,Port Macquarie,AU,2022-07-27 01:40:22,-31.4333,152.9167,61.9,45,0,14.56
122,Opuwo,NA,2022-07-27 01:40:22,-18.0607,13.84,56.48,33,64,0.81
123,Aketi,CD,2022-07-27 01:40:23,2.7388,23.7833,70.43,98,100,1.21
124,Arraial Do Cabo,BR,2022-07-27 01:40:23,-22.9661,-42.0278,70.3,86,0,16.28
125,Touros,BR,2022-07-27 01:40:24,-5.1989,-35.4608,73.94,86,1,10.18
126,Jatai,BR,2022-07-27 01:35:46,-17.8814,-51.7144,67.01,36,0,5.66
127,Tasiilaq,GL,2022-07-27 01:40:24,65.6145,-37.6368,39.36,94,100,4.05
128,Roald,NO,2022-07-27 01:40:24,62.5833,6.1333,53.17,93,75,5.75
129,Ancud,CL,2022-07-27 01:40:25,-41.8697,-73.8203,48.22,94,83,8.14
130,Marsh Harbour,BS,2022-07-27 01:35:28,26.5412,-77.0636,82.74,78,100,15.68
131,Hilo,US,2022-07-27 01:40:26,19.7297,-155.09,87.28,85,100,5.75
132,Saskylakh,RU,2022-07-27 01:40:26,71.9167,114.0833,77.2,53,36,10.92
133,Jacareacanga,BR,2022-07-27 01:40:26,-6.2222,-57.7528,76.08,54,77,1.72
134,Price,US,2022-07-27 01:40:27,39.5994,-110.8107,92.46,15,0,8.05
135,Siirt,TR,2022-07-27 01:40:27,37.9326,41.9403,72.07,18,0,2.93
136,Arlit,NE,2022-07-27 01:40:27,18.7369,7.3853,93.61,11,15,8.12
137,Shache,CN,2022-07-27 01:40:28,38.4167,77.2406,90.3,15,19,1.77
138,Provideniya,RU,2022-07-27 01:40:28,64.3833,-173.3,50.36,66,0,15.99
139,Khatanga,RU,2022-07-27 01:40:29,71.9667,102.5,76.68,39,100,12.5
140,Camargo,MX,2022-07-27 01:40:29,27.6667,-105.1667,84.25,33,73,10.38
141,Flin Flon,CA,2022-07-27 01:40:29,54.7682,-101.865,55.65,89,100,9.98
142,Talcahuano,CL,2022-07-27 01:40:30,-36.7167,-73.1167,53.28,100,75,8.05
143,Bambous Virieux,MU,2022-07-27 01:40:30,-20.3428,57.7575,67.21,94,75,3.44
144,Yuzhnyy,RU,2022-07-27 01:40:31,53.2542,83.6936,66.58,55,40,4.47
145,Pevek,RU,2022-07-27 01:40:31,69.7008,170.3133,34.88,86,100,12.28
146,Hermanus,ZA,2022-07-27 01:40:32,-34.4187,19.2345,54.43,85,46,1.79
147,Pangnirtung,CA,2022-07-27 01:40:32,66.1451,-65.7125,46.26,81,32,2.35
148,Ucluelet,CA,2022-07-27 01:40:33,48.9329,-125.5528,75.51,71,11,2.57
149,New Norfolk,AU,2022-07-27 01:40:33,-42.7826,147.0587,53.92,73,94,4.0
150,Antalaha,MG,2022-07-27 01:40:33,-14.9003,50.2788,63.12,90,16,6.33
151,Lasa,IT,2022-07-27 01:40:34,46.6166,10.7002,65.28,91,100,2.26
152,Adeje,ES,2022-07-27 01:40:34,28.1227,-16.726,85.3,19,0,14.97
153,Severnyy,RU,2022-07-27 01:40:34,50.677,36.5532,60.84,94,12,0.0
154,Guozhen,CN,2022-07-27 01:40:35,34.3659,107.359,77.56,64,96,3.04
155,Pout,SN,2022-07-27 01:40:35,14.7739,-17.0603,82.38,89,20,8.05
156,Gobabis,NA,2022-07-27 01:40:36,-22.45,18.9667,60.51,24,54,8.41
157,Freeport,US,2022-07-27 01:38:06,40.6576,-73.5832,80.58,56,0,14.97
158,Bengkulu,ID,2022-07-27 01:40:36,-3.8004,102.2655,80.17,75,78,2.17
159,Palmer,US,2022-07-27 01:40:37,42.1584,-72.3287,69.4,75,20,3.44
160,Zonguldak,TR,2022-07-27 01:40:37,41.25,31.8333,55.22,81,0,4.21
161,Alice Springs,AU,2022-07-27 01:40:08,-23.7,133.8833,53.15,43,0,19.57
162,Tubuala,PA,2022-07-27 01:40:38,9.5167,-79.0333,77.68,87,100,4.7
163,Saint-Pierre,RE,2022-07-27 01:40:38,-21.3393,55.4781,66.9,68,0,6.91
164,Itoman,JP,2022-07-27 01:40:38,26.1247,127.6694,86.4,84,20,12.66
165,Columbia,US,2022-07-27 01:38:22,34.0007,-81.0348,87.48,64,20,4.61
166,Slyudyanka,RU,2022-07-27 01:40:39,51.6594,103.7061,64.83,59,100,3.87
167,Walvis Bay,NA,2022-07-27 01:40:39,-22.9575,14.5053,49.08,87,1,4.61
168,Los Llanos De Aridane,ES,2022-07-27 01:40:40,28.6585,-17.9182,74.95,57,0,13.8
169,San Quintin,MX,2022-07-27 01:40:40,30.4833,-115.95,68.99,78,1,10.4
170,Bilma,NE,2022-07-27 01:40:40,18.6853,12.9164,87.69,12,49,5.37
171,Port Lincoln,AU,2022-07-27 01:39:55,-34.7333,135.8667,58.64,61,100,16.6
172,Cidreira,BR,2022-07-27 01:40:41,-30.1811,-50.2056,61.34,93,14,14.61
173,Tuktoyaktuk,CA,2022-07-27 01:40:41,69.4541,-133.0374,64.4,55,20,21.85
174,Kalabo,ZM,2022-07-27 01:40:42,-14.97,22.6814,51.89,53,0,6.64
175,Andenes,NO,2022-07-27 01:40:42,69.3143,16.1194,51.93,100,100,13.8
176,Adrar,MR,2022-07-27 01:40:42,20.5022,-10.0711,96.3,19,9,10.2
177,Tomatlan,MX,2022-07-27 01:40:43,19.9333,-105.25,79.54,81,100,0.89
178,Hambantota,LK,2022-07-27 01:40:43,6.1241,81.1185,75.54,100,20,2.3
179,Hamilton,US,2022-07-27 01:38:19,39.1834,-84.5333,76.05,88,100,3.44
180,Munak,IN,2022-07-27 01:40:44,29.5187,76.8486,83.95,70,91,10.4
181,Georgetown,MY,2022-07-27 01:39:45,5.4112,100.3354,85.89,86,20,3.44
182,Mayumba,GA,2022-07-27 01:40:44,-3.432,10.6554,68.18,93,21,3.22
183,Catio,GW,2022-07-27 01:40:45,11.2833,-15.25,76.08,86,53,5.55
184,Kushiro,JP,2022-07-27 01:40:45,42.975,144.3747,77.95,83,75,8.05
185,Severnoye,RU,2022-07-27 01:40:45,56.3491,78.3619,68.81,85,51,5.53
186,Broken Hill,AU,2022-07-27 01:40:46,-31.95,141.4333,55.51,50,11,6.78
187,North Bay,CA,2022-07-27 01:40:47,46.3168,-79.4663,66.94,63,40,8.05
188,Knysna,ZA,2022-07-27 01:40:47,-34.0363,23.0471,57.58,77,90,8.93
189,Mokrousovo,RU,2022-07-27 01:40:47,55.8103,66.7653,63.01,96,100,9.78
190,Grand Gaube,MU,2022-07-27 01:40:48,-20.0064,57.6608,67.37,77,10,5.01
191,Yellowknife,CA,2022-07-27 01:37:22,62.456,-114.3525,68.52,52,20,8.05
192,Ilulissat,GL,2022-07-27 01:40:48,69.2167,-51.1,44.62,87,100,6.91
193,Gimli,CA,2022-07-27 01:40:49,50.6336,-96.9907,61.75,81,38,9.82
194,Huarmey,PE,2022-07-27 01:40:49,-10.0681,-78.1522,62.65,86,76,10.04
195,Teguise,ES,2022-07-27 01:40:49,29.0605,-13.564,73.62,69,0,26.46
196,Mount Gambier,AU,2022-07-27 01:40:50,-37.8333,140.7667,53.51,94,75,10.36
197,Aneho,TG,2022-07-27 01:40:50,6.2333,1.6,77.2,86,100,14.79
198,San Cristobal,VE,2022-07-27 01:39:34,7.7669,-72.225,71.78,98,97,2.42
199,Isangel,VU,2022-07-27 01:40:51,-19.55,169.2667,80.71,78,75,4.61
200,Bodden Town,KY,2022-07-27 01:40:51,19.2833,-81.25,82.99,79,40,6.91
201,Hillsboro,US,2022-07-27 01:38:40,45.5229,-122.9898,100.98,36,0,3.44
202,Staroye Drozhzhanoye,RU,2022-07-27 01:40:52,54.7266,47.5677,62.78,96,9,5.55
203,Taybad,IR,2022-07-27 01:40:52,34.74,60.7756,79.12,44,0,17.27
204,Bathsheba,BB,2022-07-27 01:40:52,13.2167,-59.5167,81.21,86,20,17.27
205,Saint-Georges,GD,2022-07-27 01:40:53,12.0564,-61.7485,78.48,89,40,0.0
206,Xingcheng,CN,2022-07-27 01:40:53,40.6167,120.7167,79.5,77,69,8.1
207,Yaring,TH,2022-07-27 01:40:54,6.8662,101.3689,84.29,82,64,4.56
208,Maceio,BR,2022-07-27 01:40:54,-9.6658,-35.7353,74.64,88,75,4.61
209,Mudbidri,IN,2022-07-27 01:40:55,13.0833,74.9833,74.82,94,40,0.0
210,Olonets,RU,2022-07-27 01:40:55,60.9847,32.9698,63.57,82,100,5.7
211,Alexander City,US,2022-07-27 01:38:44,32.944,-85.9539,81.86,89,0,0.0
212,Axim,GH,2022-07-27 01:40:55,4.8699,-2.2405,75.61,87,87,10.92
213,Gizo,SB,2022-07-27 01:40:56,-8.103,156.8419,84.09,68,64,3.06
214,Ariquemes,BR,2022-07-27 01:40:56,-9.9133,-63.0408,74.84,47,32,2.42
215,Marsa Matruh,EG,2022-07-27 01:40:57,31.3525,27.2453,77.31,82,0,10.56
216,Saint-Michel-Des-Saints,CA,2022-07-27 01:40:22,46.6834,-73.9159,65.93,78,82,3.83
217,Arman,RU,2022-07-27 01:40:57,59.7,150.1667,75.02,72,38,5.95
218,Maltahohe,NA,2022-07-27 01:40:57,-24.8333,16.9833,47.08,21,0,6.73
219,College,US,2022-07-27 01:40:58,64.8569,-147.8028,58.46,60,100,12.66
220,Xiuyan,CN,2022-07-27 01:40:58,40.2928,123.2744,81.0,78,10,5.86
221,Pafos,CY,2022-07-27 01:40:59,34.7667,32.4167,73.18,46,0,3.44
222,Vila Velha,BR,2022-07-27 01:40:59,-20.3297,-40.2925,69.94,91,40,1.14
223,Quatre Cocos,MU,2022-07-27 01:40:59,-20.2078,57.7625,67.08,77,30,10.74
224,Taoudenni,ML,2022-07-27 01:41:00,22.6783,-3.9836,96.33,11,0,10.04
225,Teguldet,RU,2022-07-27 01:41:00,57.3064,88.1667,62.31,73,100,1.9
226,Vardo,NO,2022-07-27 01:41:00,70.3705,31.1107,57.18,100,100,10.36
227,Rundu,NA,2022-07-27 01:41:01,-17.9333,19.7667,54.63,42,82,6.33
228,Iquitos,PE,2022-07-27 01:41:01,-3.7481,-73.2472,75.24,100,40,3.44
229,Camacha,PT,2022-07-27 01:41:02,33.0833,-16.3333,67.42,83,40,17.27
230,Taraz,KZ,2022-07-27 01:41:02,42.9,71.3667,77.41,41,75,4.47
231,Itarema,BR,2022-07-27 01:41:02,-2.9248,-39.9167,77.74,76,82,13.11
232,Port-Gentil,GA,2022-07-27 01:41:03,-0.7193,8.7815,73.92,82,98,12.64
233,Cabo San Lucas,MX,2022-07-27 01:37:43,22.8909,-109.9124,94.3,58,20,12.66
234,Puerto Escondido,MX,2022-07-27 01:41:03,15.85,-97.0667,79.63,73,100,6.91
235,Khatima,IN,2022-07-27 01:41:04,28.9167,79.9667,82.13,76,90,4.43
236,Saravan,AM,2022-07-27 01:41:04,39.7196,45.6483,58.86,62,3,5.91
237,Lata,PT,2022-07-27 01:41:05,40.1629,-8.3327,54.9,97,12,1.83
238,Luderitz,NA,2022-07-27 01:41:05,-26.6481,15.1594,54.0,77,0,5.17
239,De Aar,ZA,2022-07-27 01:41:06,-30.6497,24.0123,51.01,64,2,5.12
240,Clyde River,CA,2022-07-27 01:41:06,70.4692,-68.5914,39.43,100,100,4.61
241,Nanortalik,GL,2022-07-27 01:41:06,60.1432,-45.2371,43.39,92,62,1.63
242,Husavik,IS,2022-07-27 01:41:07,66.0449,-17.3389,52.12,81,100,6.38
243,Haines Junction,CA,2022-07-27 01:41:07,60.7522,-137.5108,67.95,37,98,17.27
244,Vorsma,RU,2022-07-27 01:41:08,55.9856,43.2717,62.44,93,4,4.56
245,Norman Wells,CA,2022-07-27 01:41:08,65.282,-126.8329,57.24,94,75,12.66
246,Shelburne,CA,2022-07-27 01:41:09,44.0787,-80.2041,65.19,81,11,1.81
247,Senanga,ZM,2022-07-27 01:41:09,-16.1167,23.2667,50.81,52,0,5.75
248,Sitka,US,2022-07-27 01:41:09,57.0531,-135.33,64.29,72,100,9.22
249,Vanimo,PG,2022-07-27 01:41:10,-2.6741,141.3028,85.57,65,82,7.16
250,Groningen,NL,2022-07-27 01:36:54,53.25,6.75,57.02,84,75,5.75
251,Taitung,TW,2022-07-27 01:41:10,22.7583,121.1444,91.67,66,20,4.61
252,Namatanai,PG,2022-07-27 01:41:11,-3.6667,152.4333,84.99,63,52,7.83
253,Vagur,FO,2022-07-27 01:41:11,61.4732,-6.8119,51.04,91,100,11.92
254,Muriwai Beach,NZ,2022-07-27 01:41:12,-36.8167,174.45,60.76,70,96,15.37
255,Tabou,CI,2022-07-27 01:41:12,4.423,-7.3528,74.98,83,97,8.81
256,Lorengau,PG,2022-07-27 01:41:12,-2.0226,147.2712,85.08,71,19,10.36
257,Anloga,GH,2022-07-27 01:41:13,5.7947,0.8973,75.15,88,75,15.77
258,Belaya Gora,RU,2022-07-27 01:41:13,68.5333,146.4167,61.25,37,15,12.62
259,Biltine,TD,2022-07-27 01:41:14,14.5333,20.9167,78.1,72,100,22.08
260,Vao,NC,2022-07-27 01:41:14,-22.6667,167.4833,68.81,65,0,9.24
261,Fort Nelson,CA,2022-07-27 01:41:15,58.8053,-122.7002,85.59,39,75,4.61
262,Taman,RU,2022-07-27 01:41:15,45.2117,36.7161,72.34,66,4,4.34
263,Lagoa,PT,2022-07-27 01:41:15,39.05,-27.9833,72.68,89,10,11.68
264,Kodiak,US,2022-07-27 01:38:57,57.79,-152.4072,53.11,71,75,5.75
265,Owando,CG,2022-07-27 01:41:16,-0.4819,15.8999,70.47,88,97,3.09
266,San Rafael Del Sur,NI,2022-07-27 01:41:16,11.8485,-86.4384,76.17,78,48,7.49
267,Sao Joao Da Barra,BR,2022-07-27 01:41:17,-21.6403,-41.0511,70.03,84,8,8.97
268,Barroso,BR,2022-07-27 01:41:17,-21.1869,-43.9758,55.56,86,0,6.13
269,Naro Moru,KE,2022-07-27 01:41:18,-0.1676,37.0213,48.45,93,64,6.35
270,Micheweni,TZ,2022-07-27 01:41:18,-4.9667,39.8333,74.1,80,87,13.44
271,Khash,IR,2022-07-27 01:41:18,28.2211,61.2158,72.27,78,100,6.53
272,Imbituba,BR,2022-07-27 01:41:19,-28.24,-48.6703,65.08,96,16,1.99
273,Anadyr,RU,2022-07-27 01:41:19,64.75,177.4833,48.7,87,75,15.66
274,Lazaro Cardenas,MX,2022-07-27 01:37:40,17.9583,-102.2,80.74,73,72,1.81
275,Chapais,CA,2022-07-27 01:41:20,49.7834,-74.8492,55.18,93,74,0.09
276,Pisco,PE,2022-07-27 01:41:20,-13.7,-76.2167,60.85,88,75,6.91
277,Broome,US,2022-07-27 01:41:21,42.2506,-75.833,63.81,86,9,2.35
278,Port Hardy,CA,2022-07-27 01:41:21,50.6996,-127.4199,71.78,68,20,5.75
279,Namibe,AO,2022-07-27 01:41:21,-15.1961,12.1522,61.97,80,1,2.28
280,Mollendo,PE,2022-07-27 01:38:33,-17.0231,-72.0147,59.43,87,97,8.03
281,Saldanha,ZA,2022-07-27 01:41:22,-33.0117,17.9442,50.05,88,0,7.4
282,Kirkwall,GB,2022-07-27 01:41:22,58.9848,-2.9587,51.96,93,100,6.91
283,Valentigney,FR,2022-07-27 01:41:23,47.4639,6.8317,61.75,91,20,2.8
284,Longyearbyen,SJ,2022-07-27 01:41:23,78.2186,15.6401,48.04,76,75,4.61
285,Cotonou,BJ,2022-07-27 01:41:23,6.3654,2.4183,78.78,83,40,13.8
286,Basse-Pointe,MQ,2022-07-27 01:41:24,14.8695,-61.115,79.84,37,7,17.67
287,Ensley,US,2022-07-27 01:41:24,30.5188,-87.2728,85.59,83,20,6.91
288,Guerrero Negro,MX,2022-07-27 01:41:25,27.9769,-114.0611,70.88,77,8,13.73
289,Nushki,PK,2022-07-27 01:41:25,29.5542,66.0215,80.94,67,17,3.76
290,Rio Cuarto,AR,2022-07-27 01:41:25,-33.1307,-64.3499,62.56,94,86,5.91
291,Maxixe,MZ,2022-07-27 01:41:26,-23.8597,35.3472,60.03,78,0,1.74
292,Banda Aceh,ID,2022-07-27 01:41:26,5.5577,95.3222,81.19,76,100,5.59
293,Dunedin,NZ,2022-07-27 01:41:27,-45.8742,170.5036,46.63,96,100,9.48
294,Saint-Augustin,CA,2022-07-27 01:41:27,51.226,-58.6502,61.12,74,12,14.97
295,Poltava,UA,2022-07-27 01:39:59,49.5937,34.5407,60.35,94,0,5.61
296,Nouadhibou,MR,2022-07-27 01:41:28,20.931,-17.0347,78.78,89,1,8.05
297,Rani,IN,2022-07-27 01:41:28,25.3503,73.3089,77.9,86,100,9.17
298,Lompoc,US,2022-07-27 01:39:06,34.6391,-120.4579,77.14,74,0,14.97
299,Egvekinot,RU,2022-07-27 01:41:28,66.3167,-179.1667,44.91,60,100,2.28
300,Caravelas,BR,2022-07-27 01:41:29,-17.7125,-39.2481,70.47,76,2,6.08
301,Rivera,UY,2022-07-27 01:41:29,-30.9053,-55.5508,63.95,93,7,4.68
302,Fortuna,US,2022-07-27 01:41:30,40.5982,-124.1573,64.09,80,34,5.01
303,Muros,ES,2022-07-27 01:41:30,42.7762,-9.0603,63.09,82,0,11.12
304,Bahia Blanca,AR,2022-07-27 01:40:09,-38.7196,-62.2724,51.21,93,100,7.18
305,Boda,CF,2022-07-27 01:41:31,4.3189,17.4695,69.96,97,100,2.98
306,Waitati,NZ,2022-07-27 01:41:31,-45.75,170.5667,46.49,98,100,5.23
307,Labuhan,ID,2022-07-27 01:41:31,-6.8844,112.2051,81.66,65,18,7.47
308,Gold Coast,AU,2022-07-27 01:41:32,-28.0,153.4333,66.78,57,0,8.05
309,Zhoucheng,CN,2022-07-27 01:41:32,35.9122,116.3117,84.63,69,1,2.39
310,Rio Gallegos,AR,2022-07-27 01:36:55,-51.6226,-69.2181,17.65,93,0,3.44
311,Takoradi,GH,2022-07-27 01:41:33,4.8845,-1.7554,74.59,91,93,9.37
312,Dauriya,RU,2022-07-27 01:41:33,49.9333,116.8667,72.68,51,8,20.89
313,Mishelevka,RU,2022-07-27 01:41:34,52.8575,103.1719,64.2,66,100,5.86
314,Kahului,US,2022-07-27 01:41:34,20.8947,-156.47,87.82,61,20,25.32
315,Careiro Da Varzea,BR,2022-07-27 01:41:34,-3.2003,-59.8119,84.81,80,47,4.43
316,San Patricio,US,2022-07-27 01:41:35,28.017,-97.5169,88.84,64,100,13.87
317,Muravlenko,RU,2022-07-27 01:41:35,63.7898,74.523,54.95,68,4,14.14
318,Tsabong,BW,2022-07-27 01:41:35,-26.0217,22.401,63.75,36,73,16.24
319,Almaznyy,RU,2022-07-27 01:41:36,48.0448,40.045,62.19,84,99,4.61
320,Pictou,CA,2022-07-27 01:41:36,45.6834,-62.7153,69.24,64,97,6.91
321,Shetpe,KZ,2022-07-27 01:41:36,44.1667,52.1167,74.34,50,3,3.27
322,Mossendjo,CG,2022-07-27 01:41:37,-2.9506,12.7261,62.76,91,17,1.86
323,Baft,IR,2022-07-27 01:41:37,29.234,56.6057,67.17,74,100,5.82
324,Aksu,CN,2022-07-27 01:41:38,41.1231,80.2644,89.83,17,2,4.45
325,Qaqortoq,GL,2022-07-27 01:41:38,60.7167,-46.0333,42.91,93,10,3.42
326,Sao Raimundo Nonato,BR,2022-07-27 01:37:50,-9.0153,-42.6994,72.75,57,100,5.39
327,Harnosand,SE,2022-07-27 01:41:39,62.6323,17.9379,57.0,84,100,13.51
328,Nantucket,US,2022-07-27 01:37:56,41.2835,-70.0995,73.51,86,0,8.05
329,Rorvik,NO,2022-07-27 01:41:39,64.8621,11.2373,53.24,84,100,27.04
330,Betafo,MG,2022-07-27 01:41:40,-19.8333,46.85,49.12,92,1,3.94
331,Eyl,SO,2022-07-27 01:41:40,7.9803,49.8164,77.43,67,22,23.15
332,Same,TZ,2022-07-27 01:41:40,-4.0667,37.7333,60.03,95,58,2.53
333,Vigrestad,NO,2022-07-27 01:41:41,58.5667,5.7,50.95,78,100,25.95
334,Kaitangata,NZ,2022-07-27 01:41:41,-46.2817,169.8464,45.72,97,100,9.26
335,Santa Isabel Do Rio Negro,BR,2022-07-27 01:41:42,-0.4139,-65.0192,73.08,97,87,1.43
336,Yaan,NG,2022-07-27 01:41:42,7.3833,8.5667,71.85,97,100,6.96
337,Ayame,CI,2022-07-27 01:41:42,5.6083,-3.1563,72.66,95,100,3.85
338,Varna,BG,2022-07-27 01:41:43,43.2167,27.9167,74.44,80,0,0.0
339,Houlton,US,2022-07-27 01:41:43,46.1262,-67.8403,64.81,76,0,3.44
340,Okitipupa,NG,2022-07-27 01:41:43,6.5047,4.7839,73.26,98,93,2.53
341,Mulege,MX,2022-07-27 01:41:44,26.8833,-111.9833,89.38,50,3,6.08
342,Kajaani,FI,2022-07-27 01:41:44,64.2273,27.7285,62.65,94,75,9.22
343,Weinan,CN,2022-07-27 01:38:01,34.5036,109.5089,74.95,94,100,2.1
344,Banos,EC,2022-07-27 01:41:45,-1.4,-78.4167,59.11,98,100,2.08
345,Tucupita,VE,2022-07-27 01:41:45,9.0622,-62.051,74.21,96,11,3.96
346,Qasigiannguit,GL,2022-07-27 01:41:45,68.8193,-51.1922,44.85,98,100,3.27
347,Mangai,CD,2022-07-27 01:41:46,-4.05,19.5333,70.25,86,94,1.34
348,Kieta,PG,2022-07-27 01:41:46,-6.2167,155.6333,84.97,67,49,4.59
349,Svoge,BG,2022-07-27 01:41:47,42.9667,23.35,68.27,48,0,3.69
350,Verkhnyaya Inta,RU,2022-07-27 01:41:47,65.9811,60.3094,50.95,75,95,10.94
351,Katangli,RU,2022-07-27 01:41:47,51.7102,143.2326,55.56,91,100,5.28
352,Yantal,RU,2022-07-27 01:41:48,56.8471,105.2542,62.8,67,100,6.71
353,Swan Hill,AU,2022-07-27 01:41:48,-35.3378,143.5544,58.48,56,85,13.13
354,Inuvik,CA,2022-07-27 01:38:03,68.3499,-133.7218,67.21,32,40,14.97
355,Margate,GB,2022-07-27 01:41:49,51.3813,1.3862,61.3,75,100,1.01
356,Megion,RU,2022-07-27 01:41:49,61.0296,76.1136,64.42,76,40,8.16
357,Olinda,BR,2022-07-27 01:41:50,-8.0089,-34.8553,71.33,94,100,8.05
358,Salalah,OM,2022-07-27 01:41:50,17.0151,54.0924,75.29,100,100,8.05
359,Sola,VU,2022-07-27 01:41:50,-13.8833,167.55,81.0,77,23,12.82
360,Kurush,RU,2022-07-27 01:41:51,41.2841,47.8345,48.92,70,0,4.99
361,New Ulm,US,2022-07-27 01:41:51,44.3125,-94.4605,75.58,82,75,4.61
362,Bay Roberts,CA,2022-07-27 01:41:51,47.5999,-53.2648,69.51,95,100,4.0
363,Barcelos,PT,2022-07-27 01:41:52,41.5388,-8.6151,65.84,87,0,2.26
364,Sandnessjoen,NO,2022-07-27 01:41:52,66.0217,12.6316,54.12,94,100,5.01
365,Granadilla De Abona,ES,2022-07-27 01:41:53,28.1188,-16.576,80.56,51,0,4.61
366,Lakes Entrance,AU,2022-07-27 01:41:53,-37.8811,147.981,58.15,65,13,12.28
367,Zheleznodorozhnyy,RU,2022-07-27 01:41:54,55.7503,38.0042,68.61,90,10,2.91
368,Adelaide,AU,2022-07-27 01:40:25,-34.9333,138.6,56.86,75,75,9.22
369,Coahuayana,MX,2022-07-27 01:41:54,18.7333,-103.6833,79.68,80,100,2.3
370,Los Alamos,US,2022-07-27 01:41:55,35.8881,-106.307,71.29,78,100,10.36
371,Mecca,SA,2022-07-27 01:41:55,21.4267,39.8261,86.7,56,80,2.01
372,Yinchuan,CN,2022-07-27 01:41:55,38.4681,106.2731,77.72,37,0,16.35
373,Cayenne,GF,2022-07-27 01:40:38,4.9333,-52.3333,77.09,1,0,0.0
374,Narsaq,GL,2022-07-27 01:41:56,60.9167,-46.05,52.02,90,24,1.23
375,Russell,US,2022-07-27 01:41:56,32.3502,-85.1999,83.43,74,20,1.14
376,Kandrian,PG,2022-07-27 01:41:57,-6.2167,149.55,84.0,73,100,8.7
377,Bambanglipuro,ID,2022-07-27 01:41:57,-7.95,110.2833,78.69,73,92,3.91
378,Kaoma,ZM,2022-07-27 01:41:58,-14.7833,24.8,48.81,65,1,5.61
379,Smithers,CA,2022-07-27 01:41:58,54.7804,-127.1743,88.12,35,0,5.75
380,Mananjary,MG,2022-07-27 01:41:58,-21.2167,48.3333,62.38,91,7,3.69
381,Lamu,KE,2022-07-27 01:41:59,-2.2717,40.902,73.62,75,82,16.13
382,Davenda,RU,2022-07-27 01:41:59,53.5556,119.317,69.51,88,100,9.78
383,Omsukchan,RU,2022-07-27 01:42:00,62.5333,155.8,63.72,39,95,11.48
384,Kuah,MY,2022-07-27 01:42:00,6.3265,99.8432,84.18,84,20,3.44
385,Turukhansk,RU,2022-07-27 01:42:00,65.8167,87.9833,65.43,61,0,2.98
386,Quang Ngai,VN,2022-07-27 01:42:01,15.1167,108.8,90.46,52,10,3.2
387,Zhanaozen,KZ,2022-07-27 01:42:01,43.3,52.8,74.64,47,0,8.19
388,Havre-Saint-Pierre,CA,2022-07-27 01:42:02,50.2334,-63.5986,57.56,88,100,10.36
389,Bridlington,GB,2022-07-27 01:39:15,54.0831,-0.1919,58.89,68,99,4.61
390,Plettenberg Bay,ZA,2022-07-27 01:42:02,-34.0527,23.3716,57.11,72,91,10.63
391,Medina Del Campo,ES,2022-07-27 01:42:03,41.3124,-4.9141,60.71,69,1,6.8
392,Mandurah,AU,2022-07-27 01:42:03,-32.55,115.7,56.91,83,99,8.19
393,Pacific Grove,US,2022-07-27 01:42:03,36.6177,-121.9166,69.24,81,0,12.66
394,Felanitx,ES,2022-07-27 01:42:04,39.4696,3.1483,77.95,79,0,4.83
395,Jaten,ID,2022-07-27 01:42:04,-7.5772,110.8975,80.8,65,57,5.77
396,Orikum,AL,2022-07-27 01:42:05,40.3253,19.4714,79.38,55,0,3.56
397,Padilla,CO,2022-07-27 01:42:05,3.2204,-76.3139,71.17,93,60,3.71
398,Ricardo Palma,PE,2022-07-27 01:42:06,-11.9181,-76.6664,67.06,63,79,0.72
399,Pozo Colorado,PY,2022-07-27 01:42:06,-23.4923,-58.7972,73.26,41,11,5.21
400,Mayya,RU,2022-07-27 01:42:06,61.7333,130.2811,77.32,40,61,1.07
401,Trincomalee,LK,2022-07-27 01:42:07,8.5711,81.2335,80.49,79,100,6.35
402,La Libertad,EC,2022-07-27 01:42:07,-2.2333,-80.9,68.97,86,98,9.69
403,Mandiana,GN,2022-07-27 01:42:08,10.6333,-8.6833,68.18,94,100,6.96
404,Dhana,IN,2022-07-27 01:42:08,23.75,78.85,74.44,93,100,5.57
405,Catamarca,AR,2022-07-27 01:39:11,-28.4696,-65.7852,71.78,66,98,1.01
406,Coihaique,CL,2022-07-27 01:42:08,-45.5752,-72.0662,31.95,93,100,0.0
407,Eureka,US,2022-07-27 01:39:27,40.8021,-124.1637,64.36,77,47,3.0
408,La Plaine,DM,2022-07-27 01:42:09,15.3333,-61.25,79.16,76,27,15.26
409,Kumbo,CM,2022-07-27 01:42:09,6.2,10.6667,58.62,97,100,3.38
410,Amahai,ID,2022-07-27 01:42:10,-3.3333,128.9167,78.78,86,91,10.83
411,Krasnyy Chikoy,RU,2022-07-27 01:42:10,50.3643,108.7512,53.19,96,100,9.08
412,Sioux Lookout,CA,2022-07-27 01:42:11,50.1001,-91.917,66.27,63,40,9.22
413,Meulaboh,ID,2022-07-27 01:42:11,4.1363,96.1285,77.49,85,98,5.57
414,Rosario,AR,2022-07-27 01:40:11,-32.9468,-60.6393,71.82,84,0,3.44
415,Kongolo,CD,2022-07-27 01:42:12,-5.3833,27.0,72.19,51,99,2.35
416,Praia Da Vitoria,PT,2022-07-27 01:42:12,38.7333,-27.0667,72.75,94,20,5.68
417,Taltal,CL,2022-07-27 01:40:20,-25.4,-70.4833,59.29,77,2,4.52
418,Vuktyl,RU,2022-07-27 01:42:12,63.8567,57.3094,53.51,69,54,0.83
419,Kruisfontein,ZA,2022-07-27 01:42:13,-34.0033,24.7314,55.42,78,80,17.81
420,Sterling,US,2022-07-27 01:38:11,39.0062,-77.4286,74.93,91,100,0.0
421,Placido De Castro,BR,2022-07-27 01:42:13,-10.3353,-67.1856,78.53,44,99,2.39
422,Santa Isabel,BR,2022-07-27 01:40:20,-23.3156,-46.2214,63.7,95,20,1.66
423,Kununurra,AU,2022-07-27 01:41:29,-15.7667,128.7333,76.98,29,1,13.8
424,Urumqi,CN,2022-07-27 01:42:02,43.801,87.6005,79.75,28,0,2.24
425,Sept-Iles,CA,2022-07-27 01:40:02,50.2001,-66.3821,69.8,70,75,12.66
426,Amuntai,ID,2022-07-27 01:42:14,-2.4177,115.2494,82.94,75,100,0.92
427,Terney,RU,2022-07-27 01:42:15,45.0503,136.6092,71.4,79,50,6.17
428,Sangerhausen,DE,2022-07-27 01:42:15,51.4667,11.3,60.76,78,83,3.4
429,Launceston,AU,2022-07-27 01:42:16,-41.45,147.1667,55.35,81,26,4.61
430,Tuatapere,NZ,2022-07-27 01:42:16,-46.1333,167.6833,45.9,95,100,3.8
431,Gouyave,GD,2022-07-27 01:42:16,12.1646,-61.7296,77.77,89,40,0.0
432,Baiao,BR,2022-07-27 01:42:17,-2.7906,-49.6717,75.29,74,100,2.33
433,Coolum Beach,AU,2022-07-27 01:42:17,-26.5333,153.1,64.11,42,0,14.85
434,Balkanabat,TM,2022-07-27 01:42:17,39.5108,54.3671,85.57,30,1,7.11
435,Torbay,CA,2022-07-27 01:42:18,47.6666,-52.7314,68.76,96,100,17.27
436,Paamiut,GL,2022-07-27 01:42:18,61.994,-49.6678,41.68,95,37,16.89
437,Raymondville,US,2022-07-27 01:42:19,26.4815,-97.7831,88.09,66,100,16.26
438,Tezu,IN,2022-07-27 01:42:19,27.9167,96.1667,78.98,92,79,1.07
439,Liku,ID,2022-07-27 01:42:19,-0.7275,119.8922,84.24,68,100,0.47
440,Hiriyur,IN,2022-07-27 01:42:20,13.9456,76.6192,73.15,83,49,3.78
441,Ahipara,NZ,2022-07-27 01:42:20,-35.1667,173.1667,60.28,74,74,10.8
442,Comodoro Rivadavia,AR,2022-07-27 01:42:21,-45.8667,-67.5,33.66,93,40,4.61
443,Sarankhola,BD,2022-07-27 01:42:21,22.3082,89.7897,83.73,76,70,1.5
444,Mutoko,ZW,2022-07-27 01:42:21,-17.397,32.2268,48.47,95,15,2.37
445,Herat,AF,2022-07-27 01:42:22,34.5,62.0,76.48,35,0,11.77
446,Tiksi,RU,2022-07-27 01:42:22,71.6872,128.8694,54.19,74,100,2.28
447,Vitim,RU,2022-07-27 01:42:23,59.4511,112.5578,71.35,60,96,3.8
448,Zambezi,ZM,2022-07-27 01:42:23,-13.5432,23.1047,49.66,52,0,5.61
449,Korla,CN,2022-07-27 01:42:23,41.7597,86.1469,90.25,15,5,3.38
450,Akyab,MM,2022-07-27 01:42:24,20.15,92.9,83.05,76,16,2.24
451,Lesosibirsk,RU,2022-07-27 01:42:24,58.2358,92.4828,64.04,68,100,6.71
452,Bartlesville,US,2022-07-27 01:38:19,36.7473,-95.9808,100.35,34,0,8.05
453,Mayo,US,2022-07-27 01:42:25,38.8876,-76.5119,75.94,89,100,5.41
454,Zhuhai,CN,2022-07-27 01:42:25,22.2769,113.5678,92.86,62,40,8.05
455,Gaoual,GN,2022-07-27 01:42:26,11.75,-13.2,73.56,98,99,1.88
456,Dali,CN,2022-07-27 01:42:26,25.7,100.1833,68.65,77,99,4.18
457,Alyangula,AU,2022-07-27 01:42:26,-13.8483,136.4192,76.44,58,5,17.29
458,Jiutai,CN,2022-07-27 01:42:27,44.1525,125.8328,82.74,74,15,4.85
459,Semme,FR,2022-07-27 01:42:27,46.1963,1.5007,59.41,92,0,1.77
460,Ixtapa,MX,2022-07-27 01:42:27,20.7,-105.2,85.23,74,75,9.22
461,Zarubino,RU,2022-07-27 01:42:28,42.63,131.0922,73.65,80,1,5.41
462,Labytnangi,RU,2022-07-27 01:42:28,66.6572,66.4183,52.86,76,100,10.54
463,Natal,BR,2022-07-27 01:42:28,-5.795,-35.2094,77.22,83,0,8.05
464,Yerbogachen,RU,2022-07-27 01:42:29,61.2767,108.0108,67.48,63,61,9.06
465,Mariinsk,RU,2022-07-27 01:42:29,56.2139,87.7472,61.57,78,100,3.31
466,Charagua,BO,2022-07-27 01:42:30,-19.8,-63.2167,74.07,57,0,11.7
467,Saint-Joseph,RE,2022-07-27 01:42:30,-21.3667,55.6167,64.78,80,25,10.04
468,Fort Dodge,US,2022-07-27 01:39:14,42.4975,-94.168,77.02,69,0,5.75
469,Chicama,PE,2022-07-27 01:42:31,-7.8447,-79.1469,59.54,83,84,6.87
470,Seoul,KR,2022-07-27 01:42:27,37.5683,126.9778,85.57,66,40,4.61
471,Fort Frances,CA,2022-07-27 01:42:31,48.5999,-93.4003,71.82,60,0,4.61
472,Mahanoro,MG,2022-07-27 01:42:32,-19.9,48.8,62.47,91,1,2.8
473,Nueve De Julio,AR,2022-07-27 01:42:32,-35.4444,-60.8831,63.0,96,92,7.9
474,Yeppoon,AU,2022-07-27 01:42:32,-23.1333,150.7333,65.98,38,0,10.11
475,Halifax,CA,2022-07-27 01:42:02,44.6453,-63.5724,69.69,78,75,4.0
476,Galveston,US,2022-07-27 01:42:33,29.3669,-94.9669,87.98,74,20,11.5
477,Big Rapids,US,2022-07-27 01:42:33,43.6981,-85.4837,68.07,73,0,0.0
478,Mount Isa,AU,2022-07-27 01:42:34,-20.7333,139.5,67.77,28,0,13.8
479,Rafraf,TN,2022-07-27 01:42:34,37.1904,10.1837,77.32,66,0,10.87
480,Esna,EG,2022-07-27 01:42:34,25.2934,32.554,82.42,17,0,7.16
481,Mao,ES,2022-07-27 01:42:35,39.8885,4.2658,73.96,78,0,5.75
482,Kaura Namoda,NG,2022-07-27 01:42:35,12.5898,6.5779,77.49,79,94,13.8
483,Bose,IT,2022-07-27 01:42:36,45.4612,8.0137,66.15,92,13,6.6
484,Semey,KZ,2022-07-27 01:42:36,50.4111,80.2275,68.22,52,0,4.47
485,Porto Novo,BJ,2022-07-27 01:42:36,6.4965,2.6036,78.62,89,100,8.66
486,Varnamo,SE,2022-07-27 01:42:37,57.186,14.04,53.06,91,100,4.0
487,Oktyabrskoye,RU,2022-07-27 01:42:37,43.0645,44.7417,60.94,88,100,6.71
488,Tabuk,PH,2022-07-27 01:42:38,17.4189,121.4443,84.92,73,100,3.4
489,Lodja,CD,2022-07-27 01:42:38,-3.4833,23.4333,69.31,49,91,2.19
490,Boa Vista,BR,2022-07-27 01:42:38,2.8197,-60.6733,80.58,78,40,2.3
491,Vidalia,US,2022-07-27 01:42:39,32.2177,-82.4135,82.35,69,40,3.44
492,Zinder,NE,2022-07-27 01:42:39,13.8072,8.9881,83.59,61,15,14.88
493,Yei,SS,2022-07-27 01:42:40,4.095,30.6779,64.44,98,100,3.44
494,Kostrzyn,PL,2022-07-27 01:42:40,52.3985,17.2281,60.71,90,25,3.65
495,San Rafael,AR,2022-07-27 01:41:23,-34.6177,-68.3301,47.7,82,96,7.05
496,Kyzyl-Mazhalyk,RU,2022-07-27 01:42:41,51.1333,90.6,62.6,46,89,0.38
497,Karasjok,NO,2022-07-27 01:42:41,69.4719,25.5112,58.55,98,100,7.16
498,Senigallia,IT,2022-07-27 01:42:41,43.7093,13.2167,77.95,69,0,1.99
499,Kenai,US,2022-07-27 01:39:12,60.5544,-151.2583,65.03,61,0,14.97
500,Stephenville,US,2022-07-27 01:42:42,32.2207,-98.2023,96.8,26,0,9.22
501,Xinqing,CN,2022-07-27 01:42:42,48.2333,129.5,88.12,47,9,3.42
502,Prado,BR,2022-07-27 01:42:43,-17.3411,-39.2208,69.58,82,5,7.18
503,Morant Bay,JM,2022-07-27 01:42:43,17.8815,-76.4093,82.02,85,93,10.16
504,Manado,ID,2022-07-27 01:42:43,1.487,124.8455,88.57,66,20,2.3
505,Novyy Chirkey,RU,2022-07-27 01:42:44,43.162,47.0559,71.1,73,92,3.78
506,Bandarbeyla,SO,2022-07-27 01:42:44,9.4942,50.8122,77.86,68,11,26.51
507,Rocha,UY,2022-07-27 01:39:48,-34.4833,-54.3333,60.06,95,35,2.24
508,Nakatunguru,TZ,2022-07-27 01:42:45,-2.1167,33.0667,72.43,56,100,16.93
509,Adjumani,UG,2022-07-27 01:42:45,3.3779,31.7909,65.73,88,100,1.36
510,Santa Cruz De La Palma,ES,2022-07-27 01:42:45,28.6835,-17.7642,78.94,53,0,13.8
511,Cugir,RO,2022-07-27 01:42:46,45.8333,23.3667,67.55,54,88,3.65
512,Zhezkazgan,KZ,2022-07-27 01:42:46,47.8043,67.7144,67.98,60,0,6.71
513,Anzhero-Sudzhensk,RU,2022-07-27 01:42:47,56.081,86.0285,62.71,79,96,3.18
514,Alta Floresta,BR,2022-07-27 01:42:47,-9.8756,-56.0861,75.02,42,41,4.18
515,Korisos,GR,2022-07-27 01:42:47,40.5,21.3833,70.61,71,0,0.78
516,Faya,SA,2022-07-27 01:42:48,18.3851,42.4509,64.92,61,100,5.08
517,Shurugwi,ZW,2022-07-27 01:42:48,-19.6702,30.0059,46.08,82,0,1.5
518,Riyadh,SA,2022-07-27 01:40:05,24.6877,46.7219,86.14,16,94,5.79
519,Dongli,CN,2022-07-27 01:42:49,23.5656,116.8194,87.78,74,20,6.71
520,Wilmington,US,2022-07-27 01:40:24,34.2257,-77.9447,82.9,80,0,8.05
521,Umm Bab,QA,2022-07-27 01:42:49,25.2142,50.8072,89.17,73,100,5.97
522,Nouakchott,MR,2022-07-27 01:42:50,18.0858,-15.9785,80.53,83,51,12.59
523,Almonte,ES,2022-07-27 01:42:50,37.2647,-6.5167,79.61,50,0,10.63
524,Toamasina,MG,2022-07-27 01:42:50,-18.1667,49.3833,60.8,94,20,0.0
525,Stornoway,GB,2022-07-27 01:42:51,58.2093,-6.3865,52.93,89,100,1.14
526,Oudtshoorn,ZA,2022-07-27 01:42:51,-33.5907,22.2014,52.16,61,93,3.74
527,Khilok,RU,2022-07-27 01:42:51,51.3674,110.4676,52.09,98,100,10.98
528,Sobolevo,RU,2022-07-27 01:42:52,54.4299,31.8996,59.7,91,7,3.11
529,Alta Gracia,AR,2022-07-27 01:37:58,-31.6529,-64.4283,61.88,79,86,3.47
530,Laguna,US,2022-07-27 01:42:52,38.421,-121.4238,97.32,34,0,16.11
531,Santa Maria,BR,2022-07-27 01:42:53,-29.6842,-53.8069,61.9,100,40,5.75
532,Karratha,AU,2022-07-27 01:42:53,-20.7377,116.8463,76.53,27,1,15.52
533,Atar,MR,2022-07-27 01:42:02,20.5169,-13.0499,90.99,41,100,14.97
534,Naze,JP,2022-07-27 01:42:54,28.3667,129.4833,85.12,73,16,5.35
535,Lashio,MM,2022-07-27 01:42:54,22.9333,97.75,74.35,85,100,0.58
536,Elko,US,2022-07-27 01:42:54,41.0002,-115.5012,92.64,5,91,8.99
537,Abu Samrah,SY,2022-07-27 01:42:55,35.3029,37.1841,73.65,50,0,6.15
538,Denpasar,ID,2022-07-27 01:41:40,-8.65,115.2167,82.06,78,40,16.11
539,Aklavik,CA,2022-07-27 01:42:56,68.2191,-135.0107,64.96,32,100,20.49
540,Zeya,RU,2022-07-27 01:42:56,53.75,127.2667,84.27,49,72,5.5
541,Yumen,CN,2022-07-27 01:42:56,40.2833,97.2,84.9,11,2,10.13
542,Balaipungut,ID,2022-07-27 01:42:57,1.05,101.2833,79.32,88,100,4.36
543,Chimbote,PE,2022-07-27 01:40:10,-9.0853,-78.5783,62.01,87,77,10.94
544,Amsterdam,NL,2022-07-27 01:38:14,52.374,4.8897,58.89,82,19,1.01
545,Labrea,BR,2022-07-27 01:42:57,-7.2586,-64.7981,77.85,54,98,1.23
546,Vila,PT,2022-07-27 01:42:58,42.0304,-8.1588,53.71,82,0,4.54
